City_ID,City,Country,Lat,Lng,Max Temp,Humidity,Cloudiness,Wind Speed,Weather Description
0,Mar Del Plata,AR,-38.0023,-57.5575,54.09,81,0,9.22,clear sky
1,Kodiak,US,57.79,-152.4072,51.31,76,100,10.36,light rain
2,Ushuaia,AR,-54.8,-68.3,47.86,61,0,3.44,clear sky
3,Hithadhoo,MV,-0.6,73.0833,81.73,71,98,15.3,overcast clouds
4,Ribeira Grande,PT,38.5167,-28.7,70.11,81,99,3.76,overcast clouds
5,Chiradzulu,MW,-15.6746,35.1407,69.51,42,1,3.38,clear sky
6,Barrow,US,71.2906,-156.7887,24.82,93,100,19.57,overcast clouds
7,Tyumentsevo,RU,53.3224,81.498,30.06,90,1,6.73,clear sky
8,Berkak,NO,62.825,10.0118,42.94,84,92,6.76,overcast clouds
9,Bethel,US,41.3712,-73.414,52.57,73,100,5.99,moderate rain
10,Maraa,BR,-1.8333,-65.3667,79.5,71,84,0.94,broken clouds
11,Avarua,CK,-21.2078,-159.775,77.05,73,75,21.85,broken clouds
12,Vaini,TO,-21.2,-175.2,80.76,83,75,14.97,broken clouds
13,Hagere Selam,ET,6.4833,38.5167,48.6,98,100,3.69,light rain
14,Luderitz,NA,-26.6481,15.1594,58.33,79,4,19.08,clear sky
15,Yellowknife,CA,62.456,-114.3525,48.72,57,75,10.36,broken clouds
16,Williamsport,US,41.2412,-77.0011,53.62,77,0,4.61,clear sky
17,Longyearbyen,SJ,78.2186,15.6401,36.95,94,98,2.98,overcast clouds
18,Carnarvon,AU,-24.8667,113.6333,65.44,49,0,8.5,clear sky
19,Broome,US,42.2506,-75.833,53.67,67,0,3.44,clear sky
20,Jamestown,US,42.097,-79.2353,54.99,51,0,8.05,clear sky
21,Oron,NG,4.8256,8.2343,74.59,91,70,2.8,broken clouds
22,Chokurdakh,RU,70.6333,147.9167,22.39,89,99,5.5,overcast clouds
23,Turukhansk,RU,65.8167,87.9833,31.17,79,79,18.86,broken clouds
24,Busselton,AU,-33.65,115.3333,50.45,75,0,9.91,clear sky
25,Plouzane,FR,48.3833,-4.6167,59.18,97,75,5.75,broken clouds
26,Olafsvik,IS,64.8945,-23.7142,44.33,84,100,27.67,light rain
27,College Station,US,30.628,-96.3344,87.67,20,0,8.05,clear sky
28,Hobart,AU,-42.8794,147.3294,54.05,57,40,13.8,scattered clouds
29,Tecpan,GT,14.7623,-90.9947,63.61,92,84,2.98,broken clouds
30,Matara,LK,5.9485,80.5353,77.27,87,91,14.18,overcast clouds
31,Marcon,FR,47.7106,0.511,52.38,67,48,6.53,scattered clouds
32,Hambantota,LK,6.1241,81.1185,78.51,79,91,18.48,overcast clouds
33,Mataura,NZ,-46.1927,168.8643,53.47,49,100,10.4,overcast clouds
34,Sitka,US,57.0531,-135.33,57.09,62,40,4.61,scattered clouds
35,Rikitea,PF,-23.1203,-134.9692,70.9,71,92,18.07,overcast clouds
36,Caledon,ZA,-34.23,19.4265,51.06,90,0,3.36,clear sky
37,Qaanaaq,GL,77.484,-69.3632,15.73,72,100,6.73,overcast clouds
38,Conde,BR,-7.2597,-34.9075,76.46,78,0,9.22,clear sky
39,Vangaindrano,MG,-23.35,47.6,66.61,93,27,5.64,scattered clouds
40,Harper,LR,4.375,-7.7169,75.43,91,98,5.12,moderate rain
41,Manuk Mangkaw,PH,4.8,119.85,83.86,71,100,7.25,overcast clouds
42,Sungairaya,ID,0.7,108.9,75.67,94,87,6.53,overcast clouds
43,Kapaa,US,22.0752,-159.319,84.09,61,0,12.66,clear sky
44,Atuona,PF,-9.8,-139.0333,76.66,72,13,17.63,few clouds
45,Torbay,CA,47.6666,-52.7314,46.17,70,40,6.91,scattered clouds
46,Hermanus,ZA,-34.4187,19.2345,53.8,78,0,7.83,clear sky
47,Nimes,FR,43.8333,4.35,62.15,82,0,8.05,clear sky
48,Gobabis,NA,-22.45,18.9667,70.09,16,0,8.03,clear sky
49,Kahului,US,20.8947,-156.47,79.97,90,100,10.36,light rain
50,Shellbrook,CA,53.2168,-106.4011,65.43,29,77,5.48,broken clouds
51,Ugoofaaru,MV,5.6667,73.0,81.46,78,99,17.43,moderate rain
52,Port Alfred,ZA,-33.5906,26.891,60.19,85,95,3.0,overcast clouds
53,Elizabeth City,US,36.2946,-76.2511,55.42,94,100,18.41,mist
54,Pimenta Bueno,BR,-11.6725,-61.1936,77.7,78,57,3.53,moderate rain
55,Punta Arenas,CL,-53.15,-70.9167,44.71,81,75,8.05,broken clouds
56,Nemuro,JP,43.3236,145.575,66.38,89,85,27.38,moderate rain
57,Rio Gallegos,AR,-51.6226,-69.2181,53.65,50,0,4.61,clear sky
58,Kaitangata,NZ,-46.2817,169.8464,53.55,49,100,10.69,overcast clouds
59,Chuy,UY,-33.6971,-53.4616,51.42,79,26,7.47,scattered clouds
60,Geraldton,AU,-28.7667,114.6,55.81,62,0,12.66,clear sky
61,Bredasdorp,ZA,-34.5322,20.0403,50.59,87,0,6.51,clear sky
62,Katsuura,JP,35.1333,140.3,76.98,72,55,18.03,broken clouds
63,Beringovskiy,RU,63.05,179.3167,35.02,86,100,10.09,overcast clouds
64,Cayenne,GF,4.9333,-52.3333,80.64,78,0,6.91,clear sky
65,Pascagoula,US,30.3658,-88.5561,80.65,56,40,4.61,scattered clouds
66,Dingle,PH,10.9995,122.6711,78.76,89,100,4.41,overcast clouds
67,Vardo,NO,70.3705,31.1107,42.78,75,75,8.05,broken clouds
68,Svetlogorsk,BY,52.6333,29.7333,39.9,97,100,11.59,overcast clouds
69,Butaritari,KI,3.0707,172.7902,81.66,73,28,10.69,scattered clouds
70,Nouadhibou,MR,20.931,-17.0347,77.59,67,72,13.78,broken clouds
71,Coihaique,CL,-45.5752,-72.0662,57.81,41,75,8.05,broken clouds
72,Kavieng,PG,-2.5744,150.7967,84.4,68,98,10.38,overcast clouds
73,Saint-Philippe,RE,-21.3585,55.7679,69.39,82,42,11.41,scattered clouds
74,Suihua,CN,46.6406,126.9969,33.24,55,37,9.19,scattered clouds
75,Hilo,US,19.7297,-155.09,88.29,78,20,10.36,few clouds
76,Khatanga,RU,71.9667,102.5,14.16,88,100,7.47,overcast clouds
77,Necochea,AR,-38.5473,-58.7368,50.54,62,75,17.72,broken clouds
78,Bluff,NZ,-46.6,168.3333,53.8,74,98,24.36,light rain
79,Hasaki,JP,35.7333,140.8333,78.22,69,67,18.95,broken clouds
80,Acapulco,MX,16.8634,-99.8901,82.81,77,24,10.02,few clouds
81,El Alto,PE,-4.2714,-81.2147,67.66,82,85,17.6,overcast clouds
82,Albany,US,42.6001,-73.9662,52.56,68,100,3.83,overcast clouds
83,Golspie,GB,57.9727,-3.978,60.96,90,100,12.73,overcast clouds
84,Atasu,KZ,48.6814,71.6433,33.31,42,0,9.75,clear sky
85,Upernavik,GL,72.7868,-56.1549,23.11,76,100,8.52,overcast clouds
86,Mwinilunga,ZM,-11.7358,24.4293,66.29,30,3,3.85,clear sky
87,Anadyr,RU,64.75,177.4833,30.7,100,100,4.47,fog
88,Ipixuna,BR,-1.7625,-48.8043,77.77,85,84,6.98,moderate rain
89,Adrar,MR,20.5022,-10.0711,92.23,27,96,6.58,overcast clouds
90,Tecoanapa,MX,16.5167,-98.75,83.3,73,83,8.66,broken clouds
91,Touros,BR,-5.1989,-35.4608,77.2,75,33,15.93,scattered clouds
92,Sao Filipe,CV,14.8961,-24.4956,79.72,80,100,13.33,light rain
93,Bakchar,RU,57.0186,82.0711,30.51,79,79,3.94,broken clouds
94,Dunedin,NZ,-45.8742,170.5036,54.03,44,99,3.74,overcast clouds
95,Faanui,PF,-16.4833,-151.75,78.73,74,3,15.32,clear sky
96,Verkhnyaya Inta,RU,65.9811,60.3094,38.05,89,100,9.22,overcast clouds
97,Agboville,CI,5.928,-4.2132,72.41,99,90,2.55,overcast clouds
98,Dikson,RU,73.5069,80.5464,31.6,99,100,5.86,light snow
99,Victoria,HK,22.2855,114.1577,83.32,85,9,3.0,clear sky
100,Georgetown,MY,5.4112,100.3354,78.73,95,20,0.0,few clouds
101,Barcelona,ES,41.3888,2.159,69.55,87,20,4.61,few clouds
102,Mariinskiy Posad,RU,56.115,47.718,49.14,83,100,14.67,light rain
103,Grindavik,IS,63.8424,-22.4338,49.95,93,75,13.8,light intensity drizzle
104,Teahupoo,PF,-17.8333,-149.2667,75.16,81,21,21.52,light rain
105,Alice Springs,AU,-23.7,133.8833,69.35,88,40,5.75,scattered clouds
106,Kalevala,RU,65.2,31.1667,41.83,95,100,4.45,overcast clouds
107,Leshukonskoye,RU,64.8989,45.7622,36.34,93,100,5.23,overcast clouds
108,Labuhan,ID,-6.8844,112.2051,77.9,84,66,10.54,broken clouds
109,Ahipara,NZ,-35.1667,173.1667,59.04,68,77,10.11,broken clouds
110,Cape Town,ZA,-33.9258,18.4232,57.09,76,20,5.75,few clouds
111,Kavaratti,IN,10.5669,72.642,81.27,79,100,16.35,overcast clouds
112,Qeshm,IR,26.9581,56.2719,82.29,74,0,5.37,clear sky
113,Roma,US,43.2128,-75.4557,51.66,77,100,1.99,overcast clouds
114,Severo-Kurilsk,RU,50.6789,156.125,52.03,81,96,11.5,overcast clouds
115,La Rioja,ES,42.25,-2.5,49.78,50,56,5.68,broken clouds
116,Sorong,ID,-0.8833,131.25,79.79,83,84,5.7,broken clouds
117,Praia Da Vitoria,PT,38.7333,-27.0667,71.85,94,20,6.69,few clouds
118,Zhangjiakou,CN,40.81,114.8794,32.79,41,0,6.76,clear sky
119,Aklavik,CA,68.2191,-135.0107,30.4,85,83,7.74,broken clouds
120,Souillac,MU,-20.5167,57.5167,68.38,77,20,10.36,few clouds
121,Bafq,IR,31.6128,55.4107,74.64,23,8,4.9,clear sky
122,Sinnamary,GF,5.3833,-52.95,79.3,86,76,10.25,broken clouds
123,Vostok,RU,46.4856,135.8833,29.08,91,98,11.32,light snow
124,Vilhena,BR,-12.7406,-60.1458,77.22,83,40,4.61,scattered clouds
125,Sibu,MY,2.3,111.8167,75.51,100,40,2.3,light rain
126,Ponta Do Sol,PT,32.6667,-17.1,70.43,76,22,2.35,few clouds
127,Nioro,GM,13.35,-15.75,78.22,86,97,1.81,light rain
128,New Norfolk,AU,-42.7826,147.0587,53.71,67,80,1.99,broken clouds
129,Ilulissat,GL,69.2167,-51.1,18.39,86,20,4.56,few clouds
130,Coban,GT,15.4833,-90.3667,67.78,88,100,4.61,overcast clouds
131,Sanary-Sur-Mer,FR,43.1178,5.8001,70.88,54,19,1.1,few clouds
132,Huarmey,PE,-10.0681,-78.1522,64.35,81,13,9.95,few clouds
133,Opuwo,NA,-18.0607,13.84,70.7,34,71,4.14,broken clouds
134,Blomberg,DE,51.9433,9.0907,49.64,92,99,3.13,overcast clouds
135,Honolulu,US,21.3069,-157.8583,85.71,64,20,11.5,few clouds
136,Husavik,IS,66.0449,-17.3389,44.02,89,100,7.85,overcast clouds
137,Fayaoue,NC,-20.65,166.5333,73.58,67,60,19.13,broken clouds
138,Vila Velha,BR,-20.3297,-40.2925,76.95,91,100,10.36,overcast clouds
139,East London,ZA,-33.0153,27.9116,63.3,74,100,11.97,overcast clouds
140,Rio Cuarto,AR,-33.1307,-64.3499,74.97,19,0,31.07,clear sky
141,Mutis,CO,6.2262,-77.4044,80.02,86,75,4.9,light rain
142,Tiksi,RU,71.6872,128.8694,19.74,90,98,10.96,overcast clouds
143,Thompson,CA,55.7435,-97.8558,57.36,38,20,4.61,few clouds
144,Tasiilaq,GL,65.6145,-37.6368,34.32,99,100,7.23,light snow
145,Boa Vista,BR,2.8197,-60.6733,82.38,65,40,4.61,scattered clouds
146,Riviere-Au-Renard,CA,48.9957,-64.3971,44.89,73,0,7.09,clear sky
147,Bathsheba,BB,13.2167,-59.5167,83.01,78,20,12.66,few clouds
148,Katherine,AU,-14.4667,132.2667,82.72,61,0,6.91,clear sky
149,Stawell,AU,-37.05,142.7667,54.59,90,100,7.94,overcast clouds
150,Nizhniy Odes,RU,63.6445,54.856,41.04,82,100,3.49,overcast clouds
151,Seoul,KR,37.5683,126.9778,69.19,94,75,10.36,light intensity drizzle
152,Krasnogorsk,RU,55.8225,37.3181,52.18,76,75,17.9,broken clouds
153,Marzuq,YE,14.4,46.4667,72.86,43,1,3.2,clear sky
154,Pacific Grove,US,36.6177,-121.9166,79.02,72,0,10.0,clear sky
155,Oranjestad,AW,12.524,-70.027,85.95,74,20,16.11,few clouds
156,San Quintin,MX,30.4833,-115.95,71.28,76,63,13.53,broken clouds
157,Yarumal,CO,6.9632,-75.4174,54.54,98,48,1.95,scattered clouds
158,Orlik,RU,52.5178,99.825,19.02,56,71,2.64,broken clouds
159,Port Blair,IN,11.6667,92.75,78.84,94,75,2.3,mist
160,Pevek,RU,69.7008,170.3133,29.14,77,100,8.84,overcast clouds
161,Konya,TR,38.1667,32.5,56.26,47,11,6.38,few clouds
162,Usinsk,RU,65.9939,57.5281,40.21,74,100,7.34,overcast clouds
163,Talcahuano,CL,-36.7167,-73.1167,55.08,71,75,14.97,broken clouds
164,Port Elizabeth,ZA,-33.918,25.5701,61.09,81,0,16.11,clear sky
165,Togur,RU,58.3631,82.8265,30.0,80,97,5.91,overcast clouds
166,Totma,RU,59.9747,42.7642,52.84,88,100,10.02,overcast clouds
167,Akdepe,TM,42.0551,59.3788,44.69,32,1,9.93,clear sky
168,Arraial Do Cabo,BR,-22.9661,-42.0278,68.41,85,90,6.02,heavy intensity rain
169,Noshiro,JP,40.2039,140.0242,66.65,88,100,14.76,light rain
170,Poronaysk,RU,49.2167,143.1167,51.67,87,100,6.76,light rain
171,Puerto Ayora,EC,-0.7393,-90.3518,75.16,91,95,1.99,overcast clouds
172,Iqaluit,CA,63.7506,-68.5145,35.33,93,100,17.27,overcast clouds
173,Teseney,ER,15.11,36.6575,81.09,54,50,4.61,scattered clouds
174,Katangli,RU,51.7102,143.2326,38.53,97,100,16.6,light rain
175,Tigil,RU,57.8,158.6667,42.89,88,100,10.13,overcast clouds
176,Cabo San Lucas,MX,22.8909,-109.9124,91.62,61,1,5.61,clear sky
177,Kawambwa,ZM,-9.7915,29.0791,69.42,23,5,7.14,clear sky
178,Grand Gaube,MU,-20.0064,57.6608,71.38,69,36,5.01,scattered clouds
179,Sabanalarga,CO,10.6296,-74.9206,86.88,82,49,8.32,scattered clouds
180,Chadiza,ZM,-14.0678,32.4392,67.69,36,0,1.21,clear sky
181,Rafai,CF,4.95,23.9167,69.15,97,94,2.68,overcast clouds
182,Talnakh,RU,69.4865,88.3972,34.21,92,100,20.07,light snow
183,Makakilo City,US,21.3469,-158.0858,84.43,63,1,4.5,clear sky
184,Mayo,US,38.8876,-76.5119,50.99,91,100,5.01,light rain
185,Pabbi,PK,34.0106,71.7989,74.08,64,0,0.87,clear sky
186,Bull Savanna,JM,17.8868,-77.5902,77.2,79,100,6.69,overcast clouds
187,Castro,BR,-24.7911,-50.0119,56.95,96,60,3.96,broken clouds
188,Namibe,AO,-15.1961,12.1522,66.96,86,95,3.15,overcast clouds
189,New Richmond,US,45.123,-92.5366,74.88,47,0,8.05,clear sky
190,Pasighat,IN,28.0667,95.3333,75.61,96,97,2.44,overcast clouds
191,Cadillac,US,44.2519,-85.4012,64.31,29,0,3.44,clear sky
192,Nanortalik,GL,60.1432,-45.2371,36.77,76,41,11.99,scattered clouds
193,Mpraeso,GH,6.5932,-0.7346,69.8,97,53,3.29,broken clouds
194,Manta,EC,-0.95,-80.7333,73.18,78,75,14.97,broken clouds
195,Beckley,US,37.7782,-81.1882,54.01,84,20,9.22,few clouds
196,Padang,ID,-0.9492,100.3543,77.05,87,100,2.68,overcast clouds
197,Khani,GE,41.9563,42.9566,54.97,88,100,4.99,overcast clouds
198,Lagoa,PT,39.05,-27.9833,69.13,78,99,4.03,overcast clouds
199,Lorengau,PG,-2.0226,147.2712,85.01,68,70,9.73,broken clouds
200,Yaan,NG,7.3833,8.5667,73.63,89,61,4.29,broken clouds
201,Muros,ES,42.7762,-9.0603,61.09,94,1,2.39,clear sky
202,Chililabombwe,ZM,-12.3648,27.8229,64.92,38,0,4.88,clear sky
203,Bontang,ID,0.1333,117.5,76.68,89,98,4.76,overcast clouds
204,Ryotsu,JP,38.0833,138.4333,72.88,72,88,11.36,light rain
205,Akom,CM,2.6678,12.7109,66.45,99,96,1.3,overcast clouds
206,Pisco,PE,-13.7,-76.2167,62.65,82,20,17.27,few clouds
207,Barra Patuca,HN,15.8,-84.2833,76.19,89,100,6.98,overcast clouds
208,San Patricio,US,28.017,-97.5169,84.54,33,100,5.82,overcast clouds
209,Sobolevo,RU,54.4299,31.8996,38.43,97,100,13.96,overcast clouds
210,Macau,MO,22.2006,113.5461,82.13,89,40,5.75,scattered clouds
211,Boat Of Garten,GB,57.2491,-3.759,58.32,84,100,11.56,overcast clouds
212,Mahebourg,MU,-20.4081,57.7,71.26,77,20,10.36,few clouds
213,Sangar,RU,63.9242,127.4739,19.92,80,95,3.89,overcast clouds
214,Sakakah,SA,29.9697,40.2064,78.37,17,0,3.65,clear sky
215,Meulaboh,ID,4.1363,96.1285,74.28,94,100,3.62,heavy intensity rain
216,Port Augusta,AU,-32.5,137.7667,77.05,30,98,15.79,overcast clouds
217,Muzambinho,BR,-21.3758,-46.5256,63.9,87,31,2.53,scattered clouds
218,Alofi,NU,-19.0595,-169.9187,80.49,74,75,12.66,broken clouds
219,Srednekolymsk,RU,67.45,153.6833,25.45,81,97,3.13,overcast clouds
220,Srivardhan,IN,18.0333,73.0167,76.44,89,100,6.26,overcast clouds
221,Provideniya,RU,64.3833,-173.3,39.36,87,0,8.99,clear sky
222,Balagansk,RU,54.0103,103.0544,29.39,94,100,2.68,light snow
223,Klaksvik,FO,62.2266,-6.589,52.72,97,100,33.98,light rain
224,Smithers,CA,54.7804,-127.1743,52.12,76,20,0.0,few clouds
225,Cabra,ES,37.4725,-4.4421,69.91,39,33,1.79,scattered clouds
226,Leningradskiy,RU,69.3833,178.4167,31.19,93,100,6.46,light snow
227,Ugep,NG,5.8086,8.0812,72.63,95,92,4.21,overcast clouds
228,Macusani,PE,-14.0833,-70.4333,37.6,96,97,3.98,overcast clouds
229,Mount Gambier,AU,-37.8333,140.7667,53.96,83,100,10.22,overcast clouds
230,Hamilton,US,39.1834,-84.5333,67.87,42,3,3.0,clear sky
231,Paamiut,GL,61.994,-49.6678,37.22,71,1,15.08,clear sky
232,Tazovskiy,RU,67.4667,78.7,37.44,97,100,15.79,light rain
233,Bengkulu,ID,-3.8004,102.2655,75.69,89,100,5.3,overcast clouds
234,Buala,SB,-8.145,159.5921,83.03,75,96,8.61,light rain
235,Zamora,EC,-4.0692,-78.9567,79.84,88,89,0.78,light rain
236,Lompoc,US,34.6391,-120.4579,82.02,68,0,5.99,clear sky
237,Nelson Bay,AU,-32.7167,152.15,64.09,75,40,4.0,scattered clouds
238,Mandalgovi,MN,45.7625,106.2708,23.61,45,0,6.85,clear sky
239,Pisek,CZ,49.3088,14.1475,53.11,68,100,9.44,overcast clouds
240,Razole,IN,16.4833,81.8333,75.43,96,100,3.71,overcast clouds
241,Sambava,MG,-14.2667,50.1667,67.19,87,28,7.74,scattered clouds
242,Bambanglipuro,ID,-7.95,110.2833,76.82,87,81,5.19,broken clouds
243,Vaitape,PF,-16.5167,-151.75,78.75,74,3,15.23,clear sky
244,Creel,MX,27.75,-107.6333,62.13,52,45,6.8,scattered clouds
245,Yulara,AU,-25.2406,130.9889,62.94,67,64,6.69,broken clouds
246,Nikolskoye,RU,59.7035,30.7861,46.29,98,100,5.28,overcast clouds
247,Palana,RU,59.1167,159.9667,40.55,82,98,7.76,overcast clouds
248,Marsh Harbour,BS,26.5412,-77.0636,81.09,66,50,15.7,scattered clouds
249,Vila Franca Do Campo,PT,37.7167,-25.4333,76.19,93,47,11.14,light rain
250,Makubetsu,JP,45.3714,141.8211,62.46,96,100,16.02,light rain
251,Aquiraz,BR,-3.9014,-38.3911,80.19,81,26,12.8,scattered clouds
252,Noumea,NC,-22.2763,166.4572,76.98,63,54,11.25,broken clouds
253,Melilla,ES,35.2937,-2.9383,71.98,88,20,3.44,few clouds
254,Avera,US,33.194,-82.5271,69.85,52,58,7.09,broken clouds
255,Saint George,US,37.1041,-113.5841,83.43,26,20,3.0,few clouds
256,Sidney,AU,-33.8679,151.2073,67.32,64,0,5.75,clear sky
257,Arcata,US,40.8665,-124.0828,86.74,79,100,9.22,overcast clouds
258,Saskylakh,RU,71.9167,114.0833,11.93,98,99,5.1,overcast clouds
259,Vanimo,PG,-2.6741,141.3028,80.74,82,76,6.71,broken clouds
260,Dudinka,RU,69.4058,86.1778,34.63,90,100,26.06,overcast clouds
261,Duvan,RU,55.695,57.9024,43.18,67,89,5.19,overcast clouds
262,Hanmer Springs,NZ,-42.5167,172.8167,55.4,65,11,8.68,few clouds
263,Berdigestyakh,RU,62.0989,126.6992,26.31,91,100,7.72,light snow
264,Karratha,AU,-20.7377,116.8463,72.07,52,0,11.68,clear sky
265,College,US,64.8569,-147.8028,48.09,81,100,4.52,overcast clouds
266,Nisia Floresta,BR,-6.0911,-35.2086,80.98,78,41,8.75,scattered clouds
267,Lerwick,GB,60.1545,-1.1494,53.6,95,100,28.41,moderate rain
268,Arnia,IN,32.5167,74.8,74.79,63,0,1.57,clear sky
269,Tuktoyaktuk,CA,69.4541,-133.0374,24.8,86,100,16.11,overcast clouds
270,Naze,JP,28.3667,129.4833,79.72,76,18,7.05,few clouds
271,Wageningen,NL,51.9667,5.6667,53.94,93,100,1.14,overcast clouds
272,Meiganga,CM,6.5167,14.3,65.7,96,100,0.78,light rain
273,Ronda,ES,36.7423,-5.1671,68.56,43,6,1.7,clear sky
274,Tautira,PF,-17.7333,-149.15,76.44,81,16,20.6,light rain
275,Marawi,PH,7.9986,124.2928,71.87,84,85,1.95,overcast clouds
276,Vao,NC,-22.6667,167.4833,69.26,66,20,15.19,few clouds
277,Luan,CH,46.3592,6.9759,50.36,90,7,3.83,clear sky
278,Nome,US,64.5011,-165.4064,43.16,87,100,12.03,overcast clouds
279,Hearst,CA,49.6835,-83.6665,66.45,71,89,9.33,overcast clouds
280,Kaputa,ZM,-8.4689,29.6619,73.98,51,10,2.3,clear sky
281,Ilhabela,BR,-23.7781,-45.3581,67.62,90,94,5.28,overcast clouds
282,Trutnov,CZ,50.561,15.9127,51.58,92,79,4.0,broken clouds
283,Westport,US,41.1415,-73.3579,52.3,81,100,7.0,moderate rain
284,Haines Junction,CA,60.7522,-137.5108,57.15,41,99,11.5,overcast clouds
285,Churapcha,RU,62.0025,132.4325,22.55,85,93,5.7,overcast clouds
286,Morondava,MG,-20.2833,44.2833,70.77,90,1,4.9,clear sky
287,Norman Wells,CA,65.282,-126.8329,37.44,87,100,4.61,light rain
288,Uyuni,BO,-20.4597,-66.825,49.1,14,0,12.93,clear sky
289,Gat,IL,31.61,34.7642,75.88,100,0,2.8,clear sky
290,Mapiripan,CO,2.8892,-72.1256,76.93,85,47,1.14,scattered clouds
291,Coquimbo,CL,-29.9533,-71.3436,56.93,76,75,9.22,broken clouds
292,Guerrero Negro,MX,27.9769,-114.0611,72.61,71,70,16.37,broken clouds
293,Ushirombo,TZ,-3.4919,31.9639,66.88,58,58,2.59,broken clouds
294,Benguela,AO,-12.5763,13.4055,72.5,81,97,2.8,overcast clouds
295,Fonseca,CO,10.8861,-72.8487,79.21,88,56,2.3,broken clouds
296,Selikhino,RU,50.3672,137.4996,34.23,98,100,9.91,snow
297,Lavrentiya,RU,65.5833,-171.0,39.42,68,3,3.89,clear sky
298,Yeniseysk,RU,58.4497,92.1703,26.29,89,30,1.39,scattered clouds
299,Whitehorse,CA,60.7161,-135.0538,51.03,54,75,12.66,broken clouds
300,Ancud,CL,-41.8697,-73.8203,48.18,92,100,12.68,light rain
301,Padre Bernardo,BR,-15.35,-48.5,74.7,65,73,4.05,broken clouds
302,Kruisfontein,ZA,-34.0033,24.7314,56.88,76,100,13.22,overcast clouds
303,Umm Lajj,SA,25.0213,37.2685,86.18,40,0,3.06,clear sky
304,Arman,RU,59.7,150.1667,32.02,61,100,12.5,overcast clouds
305,Odweyne,SO,9.4092,45.064,75.06,55,62,4.92,broken clouds
306,Pangnirtung,CA,66.1451,-65.7125,37.4,35,100,14.97,overcast clouds
307,Norden,DE,53.6,7.2,53.96,85,98,10.98,overcast clouds
308,Port Arthur,CN,38.8,121.2667,46.62,52,58,32.7,broken clouds
309,Te Anau,NZ,-45.4167,167.7167,47.16,76,100,7.31,overcast clouds
310,Sosnovo-Ozerskoye,RU,52.5249,111.5418,19.0,91,72,5.66,broken clouds
311,Esperance,AU,-33.8667,121.9,57.04,86,98,12.03,overcast clouds
312,Dauriya,RU,49.9333,116.8667,21.83,89,7,6.96,clear sky
313,Isangel,VU,-19.55,169.2667,77.11,83,100,4.61,overcast clouds
314,Shirokiy,RU,49.758,129.523,30.42,55,2,15.46,clear sky
315,Kirakira,SB,-10.4544,161.9205,82.15,78,57,8.08,broken clouds
316,Tumaco,CO,1.7986,-78.8156,78.15,84,78,10.42,light rain
317,Beloha,MG,-25.1667,45.05,65.73,81,0,4.74,clear sky
318,Sarakhs,IR,36.5449,61.1577,59.61,30,0,1.07,clear sky
319,Scarborough,GB,54.2797,-0.4044,56.77,84,100,10.0,overcast clouds
320,Phonhong,LA,18.5007,102.4166,71.83,94,62,2.17,broken clouds
321,Moindou,NC,-21.6924,165.677,72.93,57,63,12.68,broken clouds
322,Kirovohrad,UA,48.5132,32.2597,51.49,72,72,14.38,broken clouds
323,Barabai,ID,-2.5833,115.3833,74.59,96,69,1.97,broken clouds
324,Lucapa,AO,-8.4192,20.7447,67.19,85,49,3.91,scattered clouds
325,Fairbanks,US,64.8378,-147.7164,48.09,80,100,4.7,overcast clouds
326,Asandh,IN,29.5167,76.6,74.26,57,0,4.36,clear sky
327,Khowst,AF,33.3833,69.8833,68.04,52,0,3.18,clear sky
328,Cherskiy,RU,68.75,161.3,27.05,77,100,7.18,overcast clouds
329,Ostrovnoy,RU,68.0531,39.5131,42.69,91,100,7.49,overcast clouds
330,Tura,IN,25.5198,90.2201,72.57,97,100,2.91,overcast clouds
331,Narsaq,GL,60.9167,-46.05,35.82,64,38,4.85,scattered clouds
332,Charlestown,AU,-32.95,151.6667,68.02,68,65,1.99,broken clouds
333,Roald,NO,62.5833,6.1333,56.32,82,100,10.36,overcast clouds
334,Waipawa,NZ,-41.4122,175.5153,53.65,55,2,6.15,clear sky
335,Goderich,CA,43.7501,-81.7165,56.91,55,62,8.72,broken clouds
336,Havoysund,NO,70.9963,24.6622,43.03,69,57,7.7,light rain
337,Yichang,CN,30.7144,111.2847,70.57,68,100,6.49,overcast clouds
338,Rodos,GR,36.4408,28.2225,73.06,49,0,8.05,clear sky
339,Akureyri,IS,65.6835,-18.0878,48.13,76,100,8.05,overcast clouds
340,Hualmay,PE,-11.0964,-77.6139,63.64,80,19,9.95,few clouds
341,Malinovoye Ozero,RU,51.6753,79.7825,31.3,81,0,6.53,clear sky
342,Kudahuvadhoo,MV,2.6708,72.8944,82.06,75,100,17.87,overcast clouds
343,Bubaque,GW,11.2833,-15.8333,82.11,75,74,6.42,light rain
344,Havelock,US,34.8791,-76.9013,56.93,86,100,4.0,overcast clouds
345,Ishigaki,JP,24.3448,124.1572,81.18,76,10,7.43,clear sky
346,Qadian,IN,31.8178,75.3919,72.43,73,0,3.67,clear sky
347,Mehamn,NO,71.0357,27.8492,37.31,100,20,2.3,few clouds
348,North Bend,US,43.4065,-124.2243,58.86,94,100,9.22,overcast clouds
349,Utete,TZ,-7.986,38.758,66.81,91,15,0.34,few clouds
350,Bronnoysund,NO,65.4625,12.1997,50.0,93,100,2.3,moderate rain
351,Burla,IN,21.5,83.8667,75.33,95,100,2.48,moderate rain
352,Oriximina,BR,-1.7656,-55.8661,82.58,54,100,0.89,light rain
353,Verkhnevilyuysk,RU,63.4453,120.3167,26.69,90,99,6.82,overcast clouds
354,Salinopolis,BR,-0.6136,-47.3561,79.95,79,80,12.44,broken clouds
355,Trincomalee,LK,8.5711,81.2335,79.74,76,88,19.46,moderate rain
356,Constitucion,CL,-35.3333,-72.4167,49.98,87,9,2.13,clear sky
357,Linqiong,CN,30.4159,103.4609,64.11,93,100,4.07,overcast clouds
358,Port Lincoln,AU,-34.7333,135.8667,57.4,93,100,26.53,light rain
359,Hohhot,CN,40.8106,111.6522,32.2,42,0,5.68,clear sky
360,Lardos,GR,36.0942,28.0157,73.22,63,0,11.1,clear sky
361,Vanavara,RU,60.34,102.2797,23.31,89,18,3.74,few clouds
362,Minsk,BY,53.9,27.5667,38.95,97,100,15.66,light rain
363,Santa Fe,AR,-31.6333,-60.7,75.0,49,24,5.99,light rain
364,Halkirk,CA,52.2834,-112.1518,69.46,35,61,6.08,broken clouds
365,Prainha,BR,-1.8,-53.48,82.51,53,54,3.69,broken clouds
366,Priargunsk,RU,50.3691,119.1012,23.97,36,0,4.68,clear sky
367,Madison,US,34.7334,-86.5667,69.85,68,0,12.66,clear sky
368,Lebu,CL,-37.6167,-73.65,51.48,92,100,10.33,moderate rain
369,Madimba,TZ,-10.4,40.3333,70.05,83,0,3.74,clear sky
370,Nkowakowa,ZA,-23.8878,30.2871,77.81,35,0,3.09,clear sky
371,Cidreira,BR,-30.1811,-50.2056,57.0,71,10,12.71,clear sky
372,Laguna,US,38.421,-121.4238,90.34,39,0,9.22,clear sky
373,Oshkosh,US,44.0247,-88.5426,65.52,56,4,7.07,clear sky
374,Hofn,IS,64.2539,-15.2082,47.64,95,100,15.19,overcast clouds
375,Abha,SA,18.2164,42.5053,62.02,51,23,4.5,few clouds
376,Lasa,IT,46.6166,10.7002,47.35,61,76,4.41,broken clouds
377,Hauge,NO,58.3436,6.2812,53.69,90,100,1.41,overcast clouds
378,Nuevo Casas Grandes,MX,30.4167,-107.9167,76.75,44,13,8.99,few clouds
379,Yelizovo,RU,53.1873,158.3805,46.54,93,75,0.0,broken clouds
380,Caravelas,BR,-17.7125,-39.2481,75.81,81,26,12.15,scattered clouds
381,Bonoua,CI,5.2741,-3.595,76.62,94,75,3.8,broken clouds
382,Cockburn Town,TC,21.4612,-71.1419,83.52,67,99,2.39,overcast clouds
383,Kieta,PG,-6.2167,155.6333,84.18,73,100,5.7,overcast clouds
384,Mugur-Aksy,RU,50.35,90.5,15.71,59,0,3.94,clear sky
385,La Asuncion,VE,11.0333,-63.8628,85.73,70,100,12.66,overcast clouds
386,Alibag,IN,18.6411,72.8792,78.87,83,100,6.8,overcast clouds
387,Verkhoturye,RU,58.8627,60.8054,44.98,86,100,6.6,overcast clouds
388,Lake Havasu City,US,34.4839,-114.3224,88.47,43,0,4.0,light rain
389,Saint Anthony,US,45.0205,-93.218,75.52,45,100,3.0,overcast clouds
390,Airai,TL,-8.9266,125.4092,65.08,85,100,1.34,overcast clouds
391,Nichinan,JP,31.6,131.3667,77.0,81,21,5.97,few clouds
392,Olden,NO,61.8364,6.8064,57.11,89,100,8.28,overcast clouds
393,Lishu,CN,43.3047,124.3278,35.29,53,0,11.14,clear sky
394,Rundu,NA,-17.9333,19.7667,68.32,15,1,4.52,clear sky
395,Quatre Cocos,MU,-20.2078,57.7625,71.1,74,13,11.77,few clouds
396,Kang,BW,-23.6752,22.7876,73.63,18,0,9.1,clear sky
397,Novyy Urengoy,RU,66.0833,76.6333,37.69,97,100,13.56,light rain
398,Chabahar,IR,25.2919,60.643,80.1,79,3,5.82,clear sky
399,Kalachinsk,RU,55.0529,74.5751,32.83,72,22,5.21,few clouds
400,Andenes,NO,69.3143,16.1194,45.93,93,20,6.91,few clouds
401,Naqadeh,IR,36.9553,45.388,62.24,28,7,5.82,clear sky
402,Koygorodok,RU,60.445,50.9968,47.66,91,100,6.98,overcast clouds
403,Lodja,CD,-3.4833,23.4333,69.46,83,41,0.92,scattered clouds
404,Prince Rupert,CA,54.3161,-130.3201,59.99,67,85,4.32,overcast clouds
405,Marondera,ZW,-18.1853,31.5519,57.81,39,0,6.49,clear sky
406,Vytegra,RU,61.0064,36.4481,51.53,84,95,11.86,overcast clouds
407,Brigham City,US,41.5102,-112.0155,75.61,27,0,4.0,clear sky
408,Aksarka,RU,66.5606,67.7975,34.75,93,76,12.5,broken clouds
409,Cap Malheureux,MU,-19.9842,57.6142,71.47,69,38,7.0,scattered clouds
410,Qianan,CN,44.9932,124.0581,35.85,40,0,13.67,clear sky
411,Baiquan,CN,47.5833,126.0833,31.89,49,2,10.25,clear sky
412,Riyadh,SA,24.6877,46.7219,80.74,22,0,4.52,clear sky
413,Hovd,MN,48.0056,91.6419,22.57,37,0,2.82,clear sky
414,Moen,NO,69.1304,18.6123,30.92,100,100,1.14,fog
415,Kitgum,UG,3.2783,32.8867,65.39,94,100,1.66,moderate rain
416,Port Moresby,PG,-9.4431,147.1797,82.38,74,21,4.27,few clouds
417,Mecca,SA,21.4267,39.8261,81.05,48,20,2.01,few clouds
418,Arandis,NA,-22.4167,14.9667,61.77,41,0,3.22,clear sky
419,Pueblo Nuevo,MX,23.3833,-105.3833,57.0,74,91,4.72,overcast clouds
420,Sorland,NO,67.667,12.6934,46.26,83,96,19.62,overcast clouds
421,Tyukhtet,RU,56.5389,89.3011,27.37,87,15,4.14,few clouds
422,Vila,PT,42.0304,-8.1588,52.7,82,19,1.97,few clouds
423,Marrakesh,MA,31.6315,-8.0083,75.27,35,8,4.61,clear sky
424,Iquique,CL,-20.2208,-70.1431,58.68,77,35,4.09,scattered clouds
425,Den Helder,NL,52.9599,4.7593,57.18,88,75,8.99,broken clouds
426,Saldanha,ZA,-33.0117,17.9442,56.93,78,0,7.9,clear sky
427,Fortuna,US,40.5982,-124.1573,64.92,75,7,1.01,clear sky
428,Ruteng,ID,-8.6136,120.4721,65.86,86,100,1.61,overcast clouds
429,Villaviciosa,ES,43.4813,-5.4357,65.41,96,40,3.02,scattered clouds
430,Tanabe,JP,33.7333,135.3667,76.21,78,75,6.91,broken clouds
431,Lagos,NG,6.5833,3.75,75.54,93,27,3.98,scattered clouds
432,Ulaangom,MN,49.9811,92.0667,24.42,59,0,2.33,clear sky
433,Honiara,SB,-9.4333,159.95,85.57,69,85,7.76,overcast clouds
434,Alexandria,EG,31.2156,29.9553,76.69,56,0,15.79,clear sky
435,Langham,CA,52.3668,-106.9679,69.03,32,61,6.29,broken clouds
436,Xuddur,SO,4.1213,43.8894,70.84,74,41,11.03,scattered clouds
437,Chake Chake,TZ,-5.2459,39.7666,72.27,84,27,8.97,scattered clouds
438,Sar-E Pul,AF,35.8333,66.1667,49.28,32,0,3.38,clear sky
439,Tomatlan,MX,19.9333,-105.25,74.5,96,100,3.33,overcast clouds
440,Norfolk,US,42.1668,-71.2495,53.31,75,100,11.5,overcast clouds
441,Bardiyah,LY,31.7561,25.0865,73.54,74,0,12.71,clear sky
442,Raga,SS,8.4596,25.678,70.2,92,63,3.91,broken clouds
443,Comodoro Rivadavia,AR,-45.8667,-67.5,60.24,53,100,9.22,overcast clouds
444,Bambous Virieux,MU,-20.3428,57.7575,71.22,74,6,12.01,clear sky
445,Port Macquarie,AU,-31.4333,152.9167,67.89,61,52,4.09,broken clouds
446,Bonavista,CA,48.6499,-53.1147,48.24,51,51,9.04,broken clouds
447,Gazanjyk,TM,39.2446,55.5154,57.24,17,4,13.53,clear sky
448,Udachnyy,RU,66.4167,112.4,5.76,96,91,3.87,overcast clouds
449,Miraflores,MX,19.2167,-98.8083,75.87,71,89,4.76,overcast clouds
450,Port-Gentil,GA,-0.7193,8.7815,78.76,89,75,13.8,broken clouds
451,Quzhou,CN,28.9594,118.8686,80.62,66,1,3.4,clear sky
452,Kaka,TM,37.3482,59.6143,59.83,30,1,4.21,clear sky
453,Hakkari,TR,37.5833,44.1667,44.38,53,0,4.61,clear sky
454,Camana,PE,-16.6228,-72.7111,61.5,80,36,7.36,scattered clouds
455,Pemangkat,ID,1.1667,108.9667,76.15,90,58,6.58,broken clouds
456,Teya,RU,60.3778,92.6267,26.02,89,72,3.65,broken clouds
457,San Andres,CO,12.5847,-81.7006,82.42,78,75,6.91,broken clouds
458,Puerto Colombia,CO,10.9878,-74.9547,84.29,80,27,14.36,scattered clouds
459,Muisne,EC,0.6,-80.0333,75.56,86,99,10.29,overcast clouds
460,Mazyr,BY,52.0495,29.2456,41.23,96,100,12.82,light rain
461,Yilan,TW,24.757,121.753,84.02,99,12,2.82,few clouds
462,Nola,IT,40.922,14.5329,68.4,70,13,5.93,few clouds
463,Lehrte,DE,52.3833,9.9667,54.18,91,100,5.3,overcast clouds
464,Syracuse,IT,37.0881,15.2792,66.31,67,7,10.71,clear sky
465,Gigmoto,PH,13.7796,124.39,82.4,82,59,4.88,broken clouds
466,Carbonia,IT,39.1672,8.5222,65.01,82,39,4.5,scattered clouds
467,Soyo,AO,-6.1349,12.3689,75.25,87,94,8.66,overcast clouds
468,Quang Ngai,VN,15.1167,108.8,74.62,91,51,4.7,broken clouds
469,Qasigiannguit,GL,68.8193,-51.1922,32.25,85,23,5.44,few clouds
470,Abu Zabad,SD,12.35,29.25,80.42,57,62,8.28,broken clouds
471,Mount Isa,AU,-20.7333,139.5,80.37,39,55,12.66,broken clouds
472,Kropotkin,RU,45.4375,40.5756,58.06,54,32,6.33,scattered clouds
473,Mataquescuintla,GT,14.5292,-90.1842,66.15,95,64,2.51,broken clouds
474,Ilo,PE,-17.6394,-71.3375,59.27,82,6,5.03,clear sky
475,Inhambane,MZ,-23.865,35.3833,71.94,89,0,11.59,clear sky
476,Kingsport,US,36.5484,-82.5618,59.11,77,100,9.22,overcast clouds
477,Yuli,NG,9.6989,10.2744,74.32,91,73,4.18,light rain
478,Okato,NZ,-39.2,173.8833,55.69,56,4,5.5,clear sky
479,Pochutla,MX,15.7432,-96.4661,85.82,79,26,4.68,scattered clouds
480,Bijie,CN,27.3125,105.2942,61.03,96,87,3.2,overcast clouds
481,Maputo,MZ,-25.9653,32.5892,73.08,88,0,6.91,clear sky
482,Fukue,JP,32.6881,128.8419,78.31,85,38,15.28,scattered clouds
483,Pathein,MM,16.7833,94.7333,75.25,96,77,5.41,broken clouds
484,Toccoa,US,34.5773,-83.3324,70.16,68,0,5.75,clear sky
485,Biltine,TD,14.5333,20.9167,78.4,60,44,11.39,scattered clouds
486,Huainan,CN,32.6264,116.9969,59.5,78,100,19.22,overcast clouds
487,Malindi,KE,-3.2175,40.1191,74.53,82,43,14.38,scattered clouds
488,Sroda Wielkopolska,PL,52.2284,17.2762,50.74,82,13,12.97,few clouds
489,Diu,IN,20.7141,70.9822,76.35,85,58,8.77,broken clouds
490,Atambua,ID,-9.1061,124.8925,78.06,77,100,1.99,overcast clouds
491,Porto Novo,BJ,6.4965,2.6036,76.93,90,66,5.97,broken clouds
492,Iskateley,RU,67.6803,53.1512,35.15,91,61,7.72,broken clouds
493,Coihueco,CL,-36.6167,-71.8333,50.74,82,40,8.05,scattered clouds
494,Vestmanna,FO,62.1564,-7.1664,50.92,100,100,21.85,drizzle rain
495,Nangomba,TZ,-10.9,38.5,68.7,69,0,3.58,clear sky
496,Marsa Matruh,EG,31.3525,27.2453,74.48,64,0,10.56,clear sky
497,Ahuimanu,US,21.4447,-157.8378,85.14,63,0,13.8,clear sky
498,Ludvika,SE,60.1496,15.1878,41.34,89,1,3.56,clear sky
499,Praia,CV,14.9215,-23.5087,79.34,83,75,17.27,thunderstorm
500,Poyarkovo,RU,49.6,128.6833,32.27,49,2,14.07,clear sky
501,Korla,CN,41.7597,86.1469,49.33,25,33,8.52,scattered clouds
502,Bandarbeyla,SO,9.4942,50.8122,77.63,79,94,20.78,overcast clouds
503,Ciudad Bolivar,VE,8.1222,-63.5497,83.19,66,50,4.83,scattered clouds
504,Valera,VE,9.3178,-70.6036,74.41,90,41,4.74,scattered clouds
505,Karasuk,RU,53.7377,78.0403,31.95,82,0,4.32,clear sky
506,Yeppoon,AU,-23.1333,150.7333,69.58,53,31,15.08,scattered clouds
507,Thakurgaon,BD,26.0333,88.4667,73.53,97,100,11.3,overcast clouds
508,Chernyakhovsk,RU,54.6335,21.8156,50.79,73,99,15.37,overcast clouds
509,Tver,RU,56.8619,35.8931,45.86,91,100,9.15,overcast clouds
510,Hay River,CA,60.8156,-115.7999,54.73,45,55,7.11,broken clouds
511,Awbari,LY,26.5921,12.7805,77.14,26,67,7.54,broken clouds
512,Pombas,CV,17.1503,-25.0201,76.78,79,88,14.25,overcast clouds
513,Reconquista,AR,-29.15,-59.65,67.75,46,0,8.72,clear sky
514,Maragogi,BR,-9.0122,-35.2225,74.21,77,3,8.21,clear sky
515,Gizo,SB,-8.103,156.8419,83.35,72,100,4.63,overcast clouds
516,Arco,IT,45.9177,10.8867,63.77,96,66,3.47,broken clouds
517,Ashland,US,40.8167,-82.2665,56.41,67,13,9.4,few clouds
518,Lazaro Cardenas,MX,17.9583,-102.2,82.44,77,46,6.67,scattered clouds
519,Codrington,AU,-38.2667,141.9667,54.19,78,97,14.03,overcast clouds
520,Melbu,NO,68.5044,14.8297,48.02,87,40,5.75,scattered clouds
521,Pozo Colorado,PY,-23.4923,-58.7972,71.4,38,38,4.61,scattered clouds
522,Bereda,ES,43.2686,-7.5406,61.41,100,3,1.86,clear sky
523,Kresttsy,RU,58.2452,32.5165,44.24,85,98,10.2,overcast clouds
524,Athabasca,CA,54.7169,-113.2854,63.63,38,66,9.8,broken clouds
525,Edwardsville,US,38.8114,-89.9532,72.0,39,0,6.91,clear sky
526,Loding,NO,67.3,14.75,48.83,78,100,6.91,overcast clouds
527,Komsomolskiy,UZ,40.4272,71.7189,58.21,37,6,1.1,clear sky
528,Yar-Sale,RU,66.8333,70.8333,38.28,86,100,15.12,overcast clouds
529,Bida,NG,9.0833,6.0167,77.85,83,90,3.38,light rain
530,Kualakapuas,ID,-3.0091,114.3876,75.2,96,95,0.43,overcast clouds
531,Idio,PH,11.6238,122.0979,78.12,85,90,5.26,overcast clouds
532,Turbat,PK,26.0023,63.044,78.3,77,0,4.18,clear sky
533,Yudong,CN,29.385,106.5194,74.5,74,98,5.06,overcast clouds
534,Bokajan,IN,26.0167,93.7833,74.14,98,99,2.08,overcast clouds
535,Ermelo,ZA,-26.5333,29.9833,64.98,30,2,5.06,clear sky
536,Santiago Del Estero,AR,-27.7951,-64.2615,78.49,31,5,8.23,clear sky
537,Bima,ID,-8.4667,118.7167,79.61,84,99,4.59,overcast clouds
538,Ferme-Neuve,CA,46.7001,-75.4493,45.59,60,95,2.46,overcast clouds
539,Barranca,PE,-10.75,-77.7667,62.22,82,16,8.7,few clouds
540,Biak,ID,-0.9131,122.8766,78.76,76,72,0.2,broken clouds
541,Perepravnaya,RU,44.3366,40.7849,53.37,86,97,3.56,overcast clouds
542,Zigong,CN,29.3416,104.7769,63.72,91,100,7.85,overcast clouds
543,Mayumba,GA,-3.432,10.6554,76.01,87,99,6.76,light rain
544,Sao Joao Da Barra,BR,-21.6403,-41.0511,71.69,93,97,8.72,overcast clouds
545,Lubango,AO,-14.9172,13.4925,61.84,69,88,3.71,overcast clouds
546,Markova,UA,48.6758,24.4138,44.29,86,100,9.15,overcast clouds
547,Galdar,ES,28.147,-15.6502,75.34,72,79,10.6,broken clouds
548,Ust-Maya,RU,60.4167,134.5333,25.32,82,95,6.76,overcast clouds
549,Bud,US,39.447,-86.1758,67.95,37,5,7.02,clear sky
550,Sioux Lookout,CA,50.1001,-91.917,59.86,70,100,3.62,overcast clouds
551,Magdagachi,RU,53.45,125.8,28.15,59,36,8.52,scattered clouds
552,Badajoz,ES,38.6667,-6.1667,71.76,33,0,4.99,clear sky
553,Vestmannaeyjar,IS,63.4427,-20.2734,49.87,84,100,24.65,overcast clouds
554,Araouane,ML,18.9048,-3.5265,96.78,17,31,10.27,scattered clouds
555,Kargasok,RU,59.0556,80.8572,30.09,81,81,9.69,broken clouds
556,Joshimath,IN,30.5667,79.5667,63.43,62,79,4.59,broken clouds
557,Guarapari,BR,-20.6667,-40.4975,73.89,97,100,6.13,moderate rain
558,Blankenberge,BE,51.3131,3.1323,53.94,83,100,9.44,overcast clouds
559,El Carmen,CO,8.5106,-73.4478,71.4,89,55,3.58,broken clouds
560,Asfi,MA,32.2994,-9.2372,71.44,65,0,7.02,clear sky
561,San Cristobal,VE,7.7669,-72.225,77.18,80,19,3.33,few clouds
562,Jumla,NP,29.2747,82.1838,52.16,86,1,3.71,clear sky
563,Nuristan,AF,35.3,70.8333,34.45,65,0,3.83,clear sky
564,Monastyrshchina,RU,54.3496,31.838,38.71,97,100,14.09,overcast clouds
565,Washougal,US,45.5826,-122.3534,84.38,47,0,6.91,smoke
566,Auki,SB,-8.7676,160.7034,83.05,71,93,4.23,overcast clouds
567,Ojinaga,MX,29.5667,-104.4167,86.95,28,0,9.22,clear sky
568,Tokur,RU,53.1333,132.9,23.43,74,98,4.32,overcast clouds
569,Mandera,KE,3.9366,41.867,76.75,57,35,18.41,scattered clouds
570,Skelmorlie,GB,55.8695,-4.8848,60.21,87,100,22.24,overcast clouds
571,Bolivar,US,37.6145,-93.4105,80.13,37,0,8.72,clear sky
572,Port Angeles,US,48.1181,-123.4307,74.32,64,0,4.0,clear sky
573,San Juan,AR,-31.5375,-68.5364,77.86,27,44,23.29,scattered clouds
574,Gumdag,TM,39.2061,54.5906,61.5,14,3,23.31,clear sky
575,Kon Tum,VN,14.35,108.0,66.97,97,91,2.28,overcast clouds
576,Klyuchi,RU,52.2667,79.1667,31.41,81,0,7.0,clear sky
577,Sahuaripa,MX,29.05,-109.2333,90.95,33,0,2.93,clear sky
578,Bodri,IN,23.1667,81.4333,74.32,81,100,2.86,overcast clouds
579,Sistranda,NO,63.7256,8.834,49.96,87,77,12.46,broken clouds
580,Guanare,VE,9.0418,-69.7421,77.43,83,24,2.46,few clouds
581,Antofagasta,CL,-23.65,-70.4,57.58,79,16,6.15,few clouds
582,Yomou,GN,7.5603,-9.2653,69.1,98,59,0.6,broken clouds
583,Pendleton,US,45.6721,-118.7886,84.61,35,0,11.5,clear sky
584,Zhoucheng,CN,35.9122,116.3117,50.43,52,98,18.79,overcast clouds
585,Coahuayana,MX,18.7333,-103.6833,78.84,89,100,3.42,overcast clouds
586,Nhulunbuy,AU,-12.2333,136.7667,83.01,78,40,6.91,scattered clouds
587,Ambilobe,MG,-13.2,49.05,65.95,81,21,3.44,few clouds
588,Buchanan,LR,5.8808,-10.0467,75.09,91,58,4.41,broken clouds
589,Lahad Datu,MY,5.0268,118.327,77.43,88,100,1.97,overcast clouds
590,Buraydah,SA,26.326,43.975,76.84,14,5,6.11,clear sky
591,Benin,BJ,9.5,2.25,73.11,93,46,4.18,scattered clouds
592,Qaqortoq,GL,60.7167,-46.0333,36.05,74,42,2.3,scattered clouds
593,Rivne,UA,50.6231,26.2274,47.07,83,100,22.53,overcast clouds
594,Kodinsk,RU,58.6881,99.1844,23.25,94,13,1.68,few clouds
595,Kotma,IN,23.2,81.9667,74.03,83,100,4.36,overcast clouds
596,Tselinnoye,RU,53.0833,85.6667,27.3,84,0,4.99,clear sky
597,Bovenden,DE,51.5833,9.9333,48.97,80,100,3.67,overcast clouds
598,San Rafael,AR,-34.6177,-68.3301,74.75,29,24,16.69,few clouds
599,Rocha,UY,-34.4833,-54.3333,47.43,86,28,4.54,scattered clouds
600,Kwinana,AU,-32.25,115.7667,56.8,70,0,12.53,clear sky
601,Surt,LY,31.2089,16.5887,76.68,68,91,12.48,overcast clouds
602,Tanem,NO,63.3078,10.4319,48.09,95,100,3.89,overcast clouds
603,Hervey Bay,AU,-25.2986,152.8535,71.02,60,6,5.99,clear sky
604,Phan Thiet,VN,10.9333,108.1,76.71,87,71,3.98,broken clouds
605,Sola,VU,-13.8833,167.55,80.31,74,23,10.07,few clouds
606,Nizhnyaya Omka,RU,55.4338,74.9426,32.43,73,33,6.13,scattered clouds
607,Balkanabat,TM,39.5108,54.3671,66.45,16,4,10.16,clear sky
608,Henties Bay,NA,-22.116,14.2845,55.17,93,0,5.19,clear sky
609,Ekibastuz,KZ,51.6667,75.3667,33.64,56,0,6.67,clear sky
610,Bodden Town,KY,19.2833,-81.25,84.2,66,40,8.05,scattered clouds
611,Joanopolis,BR,-22.9303,-46.2756,60.46,97,48,4.27,scattered clouds
612,Lamu,KE,-2.2717,40.902,75.42,82,99,13.06,overcast clouds
613,Bintulu,MY,3.1667,113.0333,76.03,90,100,2.06,light rain
614,Raudeberg,NO,61.9875,5.1352,50.95,1,100,13.09,overcast clouds
615,Turayf,SA,31.6725,38.6637,77.04,23,0,9.4,clear sky
616,Sisimiut,GL,66.9395,-53.6735,32.88,82,97,4.03,overcast clouds
617,Tucurui,BR,-3.7661,-49.6725,85.55,45,84,3.42,broken clouds
618,Malartic,CA,48.1335,-78.1328,48.04,67,75,5.3,broken clouds
619,Saint Augustine,US,29.8947,-81.3145,71.02,83,72,13.67,broken clouds
620,Mahroni,IN,24.5862,78.7288,74.08,63,82,5.08,broken clouds
621,Fecamp,FR,49.7579,0.3746,56.28,81,78,12.19,broken clouds
622,Carsamba,TR,41.1989,36.7219,58.78,94,20,2.3,few clouds
623,Flinders,AU,-34.5833,150.8552,66.38,72,94,4.0,overcast clouds
624,Saint-Joseph,RE,-21.3667,55.6167,68.38,80,37,9.82,scattered clouds
625,Girvan,GB,55.2426,-4.8555,60.8,91,96,23.44,light rain
626,Ketchikan,US,55.3422,-131.6461,52.27,82,0,8.05,clear sky
627,Mastic,US,40.802,-72.8409,51.98,91,100,1.99,light rain
628,Kizema,RU,61.113,44.8302,52.07,92,100,8.28,overcast clouds
629,Muriwai Beach,NZ,-36.8167,174.45,62.42,75,99,5.97,overcast clouds
630,Berlevag,NO,70.8578,29.0864,39.0,93,100,6.91,overcast clouds
631,Hobyo,SO,5.3505,48.5268,76.03,89,24,20.02,few clouds
632,Rehoboth,NA,-23.3167,17.0833,70.39,14,6,5.03,clear sky
633,Clyde River,CA,70.4692,-68.5914,27.7,93,100,5.99,light snow
634,Herisau,CH,47.3862,9.2792,47.59,94,56,2.44,broken clouds
635,Tooele,US,40.5308,-112.2983,73.58,33,0,10.36,clear sky
636,Saint-Pierre,RE,-21.3393,55.4781,69.48,68,75,5.75,broken clouds
637,Damietta,EG,31.4165,31.8133,74.03,67,0,8.95,clear sky
638,Albert Town,JM,18.2943,-77.5424,70.79,92,100,1.32,overcast clouds
639,Wanaka,NZ,-44.7,169.15,53.51,57,47,8.81,scattered clouds
640,Trapani,IT,37.8333,12.6667,66.27,82,12,5.53,few clouds
641,Havre-Saint-Pierre,CA,50.2334,-63.5986,46.4,76,4,17.65,clear sky
642,Barhi,IN,23.9,80.8,78.03,69,100,3.8,overcast clouds
643,Slave Lake,CA,55.2834,-114.769,65.43,41,19,8.59,few clouds
644,Tarakan,ID,3.3,117.6333,76.5,94,20,2.3,few clouds
645,Dalby,AU,-27.1833,151.2667,65.77,53,8,9.69,clear sky
646,Mogocha,RU,53.7333,119.7667,22.15,59,10,3.06,clear sky
647,Mizdah,LY,31.4451,12.9801,65.66,71,92,2.21,overcast clouds
648,Sikasso,ML,10.9167,-7.0,75.4,85,51,3.09,light rain
649,Eureka,US,40.8021,-124.1637,85.75,77,8,1.01,clear sky
650,Copiapo,CL,-27.3667,-70.3333,53.29,47,0,5.19,clear sky
651,Balod,IN,20.73,81.2047,74.86,81,100,3.53,overcast clouds
652,Puerto Del Rosario,ES,28.5004,-13.8627,73.15,83,100,9.22,overcast clouds
653,Tadine,NC,-21.55,167.8833,73.17,62,68,15.57,broken clouds
654,Vrangel,RU,42.7297,133.0839,44.85,64,100,24.14,light rain
655,Pedasi,PA,7.5333,-80.0333,80.06,78,66,5.93,broken clouds
656,Dzhebariki-Khaya,RU,62.2167,135.8,21.02,72,33,3.22,scattered clouds
657,Atar,MR,20.5169,-13.0499,91.42,34,78,1.52,broken clouds
658,Wanning,CN,18.8003,110.3967,79.39,86,98,1.86,overcast clouds
659,Deputatskiy,RU,69.3,139.9,11.17,94,98,4.36,overcast clouds
660,Konakovo,RU,56.7,36.7667,50.23,78,100,17.65,overcast clouds
661,Jalu,LY,29.0331,21.5482,72.55,69,0,14.9,clear sky
662,Talakan,RU,50.3167,130.3667,29.97,66,44,11.39,scattered clouds
663,Camacha,PT,33.0833,-16.3333,65.62,77,20,3.44,few clouds
664,Hof,DE,50.3167,11.9167,50.49,90,100,4.61,overcast clouds
665,Fort Nelson,CA,58.8053,-122.7002,63.12,29,100,0.11,overcast clouds
666,Mount Darwin,ZW,-16.7725,31.5838,64.63,43,0,2.89,clear sky
667,Curanilahue,CL,-37.4667,-73.35,48.36,97,100,3.78,overcast clouds
668,Port Hardy,CA,50.6996,-127.4199,53.6,79,27,1.45,scattered clouds
669,Wagar,SD,16.1525,36.2032,87.13,44,65,11.72,broken clouds
670,Puruaran,MX,19.1,-101.5333,72.79,86,87,3.15,overcast clouds
671,Shingu,JP,33.7333,135.9833,75.06,71,65,2.53,broken clouds
672,Methoni,GR,36.8197,21.7049,69.22,76,76,13.15,broken clouds
673,Muroto,JP,33.2833,134.15,78.06,75,47,12.41,scattered clouds
674,Springfield,US,37.2153,-93.2982,79.54,39,0,6.91,clear sky
675,Sunland Park,US,31.7965,-106.58,82.9,33,0,8.05,clear sky
